City_ID,City,Country,Date,Lat,Lng,Max Temp,Humidity,Cloudiness,Wind Speed
0,Cape Town,ZA,2021-08-08 16:53:25,-33.9258,18.4232,59.41,80,75,5.01
1,Yellowknife,CA,2021-08-08 16:58:43,62.456,-114.3525,50.52,57,75,8.05
2,San Carlos,VE,2021-08-08 16:58:44,9.6612,-68.5827,88.88,58,37,1.54
3,Saint-Philippe,RE,2021-08-08 16:58:17,-21.3585,55.7679,69.39,83,33,8.63
4,Busselton,AU,2021-08-08 16:58:44,-33.65,115.3333,56.08,85,38,23.55
5,Albany,US,2021-08-08 16:55:29,42.6001,-73.9662,84.61,65,91,2.53
6,Kapaa,US,2021-08-08 16:58:41,22.0752,-159.319,73.38,79,42,3.0
7,Yarada,IN,2021-08-08 16:58:45,17.65,83.2667,86.32,84,40,5.75
8,Lufilufi,WS,2021-08-08 16:58:45,-13.8745,-171.5986,74.98,78,92,14.58
9,Jamestown,US,2021-08-08 16:58:10,42.097,-79.2353,82.09,65,46,1.99
10,Nampula,MZ,2021-08-08 16:58:46,-15.1165,39.2666,75.15,53,40,12.66
11,Tuktoyaktuk,CA,2021-08-08 16:53:15,69.4541,-133.0374,46.4,87,90,12.66
12,Keflavik,IS,2021-08-08 16:58:46,64.0049,-22.5624,65.52,63,0,16.11
13,Kaitangata,NZ,2021-08-08 16:58:07,-46.2817,169.8464,36.09,90,82,8.19
14,Barrow,US,2021-08-08 16:58:12,71.2906,-156.7887,33.8,93,100,10.07
15,Lompoc,US,2021-08-08 16:58:47,34.6391,-120.4579,75.22,94,90,0.0
16,Kalmunai,LK,2021-08-08 16:58:47,7.4167,81.8167,80.89,80,91,2.75
17,Mataura,NZ,2021-08-08 16:58:33,-46.1927,168.8643,35.47,99,99,3.6
18,Rikitea,PF,2021-08-08 16:58:04,-23.1203,-134.9692,74.44,74,38,11.54
19,Nikolskoye,RU,2021-08-08 16:55:09,59.7035,30.7861,71.49,89,99,3.22
20,Sovetskaya Gavan,RU,2021-08-08 16:58:48,48.9723,140.2878,53.28,86,100,8.75
21,Mayumba,GA,2021-08-08 16:58:48,-3.432,10.6554,73.38,80,99,5.82
22,Souillac,MU,2021-08-08 16:55:37,-20.5167,57.5167,69.37,100,75,5.75
23,Hilo,US,2021-08-08 16:58:45,19.7297,-155.09,71.8,91,61,3.0
24,Takhli,TH,2021-08-08 16:58:49,15.2634,100.3438,83.03,67,100,4.16
25,Bredasdorp,ZA,2021-08-08 16:58:07,-34.5322,20.0403,60.28,55,100,18.41
26,Hobart,AU,2021-08-08 16:54:34,-42.8794,147.3294,44.46,84,10,4.0
27,Mogadouro,PT,2021-08-08 16:58:50,41.3403,-6.7119,81.79,17,0,8.32
28,Coahuayana,MX,2021-08-08 16:58:50,18.7333,-103.6833,87.28,56,85,1.92
29,Codrington,AU,2021-08-08 16:54:52,-38.2667,141.9667,45.75,75,85,9.4
30,Ushuaia,AR,2021-08-08 16:54:39,-54.8,-68.3,42.46,61,75,12.66
31,Bambous Virieux,MU,2021-08-08 16:55:09,-20.3428,57.7575,69.22,100,75,5.75
32,Butaritari,KI,2021-08-08 16:58:10,3.0707,172.7902,82.65,65,14,11.7
33,Saint George,US,2021-08-08 16:58:19,37.1041,-113.5841,95.54,20,0,3.36
34,Kavieng,PG,2021-08-08 16:54:44,-2.5744,150.7967,81.0,76,90,10.07
35,Padang,ID,2021-08-08 16:58:14,-0.9492,100.3543,78.48,87,81,3.85
36,Iqaluit,CA,2021-08-08 16:55:10,63.7506,-68.5145,42.53,93,90,6.91
37,Cidreira,BR,2021-08-08 16:58:52,-30.1811,-50.2056,66.72,72,3,8.55
38,Atuona,PF,2021-08-08 16:58:12,-9.8,-139.0333,77.22,81,86,18.41
39,Kupang,ID,2021-08-08 16:58:52,-10.1667,123.5833,74.16,76,10,9.95
40,Leningradskiy,RU,2021-08-08 16:55:42,69.3833,178.4167,36.43,83,59,15.17
41,Amahai,ID,2021-08-08 16:58:53,-3.3333,128.9167,76.12,88,99,2.62
42,Uvalde,US,2021-08-08 16:58:51,29.3669,-99.767,87.19,71,75,8.05
43,Moranbah,AU,2021-08-08 16:58:53,-22.0016,148.0466,53.98,96,3,9.57
44,Hermanus,ZA,2021-08-08 16:58:32,-34.4187,19.2345,60.8,72,100,25.08
45,Izumo,JP,2021-08-08 16:58:54,35.3667,132.7667,80.55,96,100,20.87
46,Grindavik,IS,2021-08-08 16:58:54,63.8424,-22.4338,64.56,63,0,16.11
47,Westerland,DE,2021-08-08 16:58:54,54.9079,8.3033,66.22,68,40,19.57
48,Esik,KZ,2021-08-08 16:58:55,43.3552,77.4525,78.22,33,58,9.73
49,Mujiayingzi,CN,2021-08-08 16:58:55,42.1167,118.7833,71.35,67,100,3.96
50,Zaozhuang,CN,2021-08-08 16:58:56,34.8647,117.5542,74.75,70,86,2.28
51,Kargasok,RU,2021-08-08 16:55:40,59.0556,80.8572,64.62,72,64,3.02
52,Male,MV,2021-08-08 16:58:56,4.1748,73.5089,84.15,79,75,16.11
53,Taraz,KZ,2021-08-08 16:58:56,42.9,71.3667,79.21,22,0,6.71
54,Porto Novo,BJ,2021-08-08 16:58:57,6.4965,2.6036,78.62,82,97,10.92
55,Mezapa,HN,2021-08-08 16:58:57,15.5833,-87.65,87.73,56,100,2.66
56,New Norfolk,AU,2021-08-08 16:53:18,-42.7826,147.0587,44.1,82,12,2.98
57,Port Elizabeth,ZA,2021-08-08 16:53:41,-33.918,25.5701,61.09,82,0,19.57
58,Sabzevar,IR,2021-08-08 16:58:58,36.2126,57.6819,89.19,14,0,17.25
59,Gorokhovets,RU,2021-08-08 16:58:58,56.1947,42.7003,84.07,45,100,7.38
60,Marsh Harbour,BS,2021-08-08 16:58:59,26.5412,-77.0636,84.0,70,13,8.34
61,Nara,JP,2021-08-08 16:58:59,34.6851,135.8049,83.48,75,100,5.28
62,Mabaruma,GY,2021-08-08 16:59:00,8.2,-59.7833,85.01,70,87,1.92
63,Lorengau,PG,2021-08-08 16:59:00,-2.0226,147.2712,80.62,79,62,9.71
64,Raudeberg,NO,2021-08-08 16:59:00,61.9875,5.1352,67.78,63,99,5.41
65,Bluff,NZ,2021-08-08 16:58:15,-46.6,168.3333,35.8,64,64,15.77
66,Shevchenkove,UA,2021-08-08 16:59:01,49.6959,37.1735,82.18,36,79,9.33
67,Georgetown,MY,2021-08-08 16:58:07,5.4112,100.3354,82.89,84,40,3.44
68,San Isidro,PE,2021-08-08 16:59:01,-12.1167,-77.05,62.26,83,90,1.01
69,Saint-Joseph,RE,2021-08-08 16:59:02,-21.3667,55.6167,68.38,81,19,5.99
70,Mangan,IN,2021-08-08 16:59:02,27.5167,88.5333,75.79,91,100,2.64
71,Rantepao,ID,2021-08-08 16:59:03,-2.9701,119.8978,65.16,97,65,1.92
72,Thompson,CA,2021-08-08 16:55:46,55.7435,-97.8558,64.56,94,90,3.44
73,Clyde River,CA,2021-08-08 16:59:03,70.4692,-68.5914,52.03,58,20,17.27
74,Zhezkazgan,KZ,2021-08-08 16:59:04,47.8043,67.7144,74.52,26,1,17.52
75,Port Lincoln,AU,2021-08-08 16:59:04,-34.7333,135.8667,54.86,63,62,10.38
76,Victoria,HK,2021-08-08 16:54:03,22.2855,114.1577,86.05,92,100,1.01
77,Kodiak,US,2021-08-08 16:54:32,57.79,-152.4072,52.63,95,98,4.25
78,Pativilca,PE,2021-08-08 16:59:05,-10.7,-77.7833,66.24,71,79,11.23
79,Ancud,CL,2021-08-08 16:59:05,-41.8697,-73.8203,53.42,61,3,3.89
80,Akyab,MM,2021-08-08 16:59:06,20.15,92.9,81.59,86,100,3.65
81,Mar Del Plata,AR,2021-08-08 16:58:05,-38.0023,-57.5575,50.02,66,0,11.5
82,Cap Malheureux,MU,2021-08-08 16:55:29,-19.9842,57.6142,69.48,89,83,3.0
83,Hit,IQ,2021-08-08 16:56:34,33.6416,42.8251,102.09,13,0,5.28
84,Paita,PE,2021-08-08 16:59:07,-5.0892,-81.1144,75.76,66,2,12.57
85,Cherskiy,RU,2021-08-08 16:55:28,68.75,161.3,47.68,60,28,2.17
86,Castro,BR,2021-08-08 16:58:29,-24.7911,-50.0119,70.57,47,26,6.62
87,Ocampo,MX,2021-08-08 16:59:07,21.65,-101.5,67.68,59,9,5.59
88,Moerai,PF,2021-08-08 16:59:07,-22.4333,-151.3333,72.99,73,3,7.16
89,Dikson,RU,2021-08-08 16:55:19,73.5069,80.5464,48.34,73,2,3.51
90,Khatanga,RU,2021-08-08 16:53:30,71.9667,102.5,53.98,61,96,14.7
91,Olavarria,AR,2021-08-08 16:59:08,-36.8927,-60.3225,42.89,84,100,13.22
92,Saskylakh,RU,2021-08-08 16:53:42,71.9167,114.0833,60.35,57,96,10.16
93,Kananga,CD,2021-08-08 16:59:09,-5.8958,22.4178,82.62,28,78,3.02
94,Marfino,RU,2021-08-08 16:57:58,55.7028,37.3822,76.28,73,0,2.24
95,Punta Arenas,CL,2021-08-08 16:57:15,-53.15,-70.9167,42.91,70,75,24.16
96,Port Alfred,ZA,2021-08-08 16:53:25,-33.5906,26.891,66.11,59,61,16.71
97,Rabo De Peixe,PT,2021-08-08 16:59:10,37.8,-25.5833,71.11,73,75,19.57
98,Puerto Ayora,EC,2021-08-08 16:58:13,-0.7393,-90.3518,75.16,84,37,11.01
99,Caravelas,BR,2021-08-08 16:56:22,-17.7125,-39.2481,75.81,59,16,10.4
100,Kawalu,ID,2021-08-08 16:59:10,-7.3817,108.2082,74.12,97,69,1.3
101,Luderitz,NA,2021-08-08 16:59:11,-26.6481,15.1594,57.96,79,69,6.82
102,Santa Cruz,BO,2021-08-08 16:58:58,-17.8,-63.1667,89.06,42,20,24.16
103,Chuy,UY,2021-08-08 16:55:24,-33.6971,-53.4616,68.07,74,81,6.76
104,Kruisfontein,ZA,2021-08-08 16:55:21,-34.0033,24.7314,56.73,81,89,11.54
105,Kampot,KH,2021-08-08 16:58:26,10.6167,104.1833,82.45,90,60,8.46
106,Tessalit,ML,2021-08-08 16:59:12,20.1986,1.0114,92.95,36,55,16.46
107,Cockburn Town,TC,2021-08-08 16:59:12,21.4612,-71.1419,85.96,66,40,10.36
108,Velingrad,BG,2021-08-08 16:59:13,42.0272,23.9957,86.86,41,0,2.24
109,Geraldton,AU,2021-08-08 16:58:23,-28.7667,114.6,64.81,88,90,12.66
110,Havre-Saint-Pierre,CA,2021-08-08 16:53:49,50.2334,-63.5986,66.56,45,40,5.75
111,Naze,JP,2021-08-08 16:57:06,28.3667,129.4833,78.22,87,50,17.11
112,Praia,CV,2021-08-08 16:59:14,14.9215,-23.5087,84.74,74,40,12.66
113,Sinnamary,GF,2021-08-08 16:59:14,5.3833,-52.95,86.63,64,58,12.39
114,Arraial Do Cabo,BR,2021-08-08 16:59:14,-22.9661,-42.0278,75.16,68,20,25.32
115,Wagar,SD,2021-08-08 16:59:15,16.1525,36.2032,86.97,54,99,9.35
116,Davidson,US,2021-08-08 16:59:15,36.1501,-86.7833,89.1,61,1,5.01
117,Fort Nelson,CA,2021-08-08 16:58:22,58.8053,-122.7002,51.39,93,75,2.3
118,Mataram,ID,2021-08-08 16:59:15,-8.5833,116.1167,77.81,85,31,2.93
119,Esmeraldas,BR,2021-08-08 16:59:16,-19.7625,-44.3139,75.31,47,90,9.66
120,Upernavik,GL,2021-08-08 16:59:16,72.7868,-56.1549,40.89,87,89,4.5
121,Severo-Kurilsk,RU,2021-08-08 16:55:56,50.6789,156.125,52.75,80,38,10.25
122,Hambantota,LK,2021-08-08 16:58:12,6.1241,81.1185,78.84,82,52,16.42
123,Oranjemund,NA,2021-08-08 16:57:11,-28.55,16.4333,59.16,71,88,11.97
124,Ixtapa,MX,2021-08-08 16:59:17,20.7,-105.2,86.23,75,90,1.99
125,Mangrol,IN,2021-08-08 16:59:17,21.1167,70.1167,81.1,80,99,9.28
126,Linjiang,CN,2021-08-08 16:59:18,41.8069,126.9078,63.39,84,0,1.21
127,Aykhal,RU,2021-08-08 16:57:59,66.0,111.5,50.07,85,42,3.15
128,French Harbor,HN,2021-08-08 16:59:18,16.35,-86.4333,88.0,74,75,1.99
129,Carnarvon,AU,2021-08-08 16:55:35,-24.8667,113.6333,66.27,80,0,6.91
130,Bandar-E Anzali,IR,2021-08-08 16:59:19,37.4727,49.4622,83.16,73,41,1.92
131,Portobelo,PA,2021-08-08 16:59:20,9.55,-79.65,86.86,81,66,4.76
132,Novoasbest,RU,2021-08-08 16:59:20,57.7422,60.2877,63.32,77,94,8.41
133,Bathsheba,BB,2021-08-08 16:58:04,13.2167,-59.5167,88.41,74,40,21.85
134,Bayan,CN,2021-08-08 16:59:21,46.0833,127.4,56.84,79,2,14.94
135,Sovetskiy,RU,2021-08-08 16:57:55,61.3614,63.5842,61.84,85,68,5.35
136,Kedrovyy,RU,2021-08-08 16:59:22,56.1667,91.8167,57.61,82,75,3.56
137,Morros,BR,2021-08-08 16:59:22,-9.4467,-46.3003,89.02,25,5,10.4
138,Warri,NG,2021-08-08 16:56:53,5.5167,5.75,77.72,79,96,9.17
139,Preobrazheniye,RU,2021-08-08 16:59:23,42.9019,133.9064,64.06,85,100,15.88
140,Esperance,AU,2021-08-08 16:54:35,-33.8667,121.9,62.44,77,8,14.74
141,Merauke,ID,2021-08-08 16:55:38,-8.4667,140.3333,75.02,88,99,11.56
142,Manokwari,ID,2021-08-08 16:59:24,-0.8667,134.0833,77.27,80,99,2.95
143,Isangel,VU,2021-08-08 16:58:03,-19.55,169.2667,69.13,73,86,10.67
144,Cartagena,CO,2021-08-08 16:58:41,10.3997,-75.5144,91.02,62,40,5.75
145,Hat Yai,TH,2021-08-08 16:59:24,7.0084,100.4767,78.98,89,20,2.3
146,Labuhan,ID,2021-08-08 16:59:25,-6.8844,112.2051,79.05,86,13,8.08
147,Viedma,AR,2021-08-08 16:55:22,-40.8135,-62.9967,55.6,33,59,13.47
148,Torbay,CA,2021-08-08 16:58:21,47.6666,-52.7314,77.88,77,75,14.97
149,Nyrob,RU,2021-08-08 16:59:25,60.733,56.7202,55.18,84,100,4.85
150,Flin Flon,CA,2021-08-08 16:59:26,54.7682,-101.865,62.44,88,90,4.61
151,Hithadhoo,MV,2021-08-08 16:59:26,-0.6,73.0833,82.71,72,97,5.79
152,Baherden,TM,2021-08-08 16:55:50,38.4362,57.4316,95.79,12,0,5.1
153,Qaanaaq,GL,2021-08-08 16:55:20,77.484,-69.3632,39.42,67,37,2.89
154,Hasaki,JP,2021-08-08 16:59:27,35.7333,140.8333,79.2,90,100,9.01
155,Mareeba,AU,2021-08-08 16:59:27,-17.0,145.4333,65.12,92,26,2.59
156,Aklavik,CA,2021-08-08 16:59:27,68.2191,-135.0107,48.2,81,75,0.0
157,Vaini,TO,2021-08-08 16:57:58,-21.2,-175.2,64.56,88,40,2.3
158,Netanya,IL,2021-08-08 16:59:28,32.3329,34.8599,85.95,71,0,5.3
159,Morehead,US,2021-08-08 16:55:32,37.2711,-87.1764,87.84,67,1,3.0
160,Marzuq,YE,2021-08-08 16:59:28,14.4,46.4667,87.8,27,74,13.53
161,Fukue,JP,2021-08-08 16:59:29,32.6881,128.8419,79.83,83,90,23.64
162,Mwinilunga,ZM,2021-08-08 16:59:29,-11.7358,24.4293,69.15,24,22,5.79
163,East London,ZA,2021-08-08 16:57:58,-33.0153,27.9116,79.74,14,0,5.75
164,Baruun-Urt,MN,2021-08-08 16:59:29,46.6806,113.2792,57.85,90,91,3.76
165,Probolinggo,ID,2021-08-08 16:59:30,-7.7543,113.2159,80.46,84,57,3.11
166,Narsaq,GL,2021-08-08 16:58:39,60.9167,-46.05,48.69,62,15,11.41
167,Sao Filipe,CV,2021-08-08 16:58:11,14.8961,-24.4956,79.97,78,18,9.06
168,Lata,PT,2021-08-08 16:55:36,40.1629,-8.3327,85.05,40,0,11.83
169,Flinders,AU,2021-08-08 16:58:03,-34.5833,150.8552,53.8,81,100,1.01
170,Port Hardy,CA,2021-08-08 16:59:31,50.6996,-127.4199,59.18,88,90,8.05
171,Dalbandin,PK,2021-08-08 16:59:31,28.8947,64.4101,92.34,10,0,10.65
172,Koslan,RU,2021-08-08 16:59:31,63.4564,48.8989,57.69,63,100,3.42
173,Abnub,EG,2021-08-08 16:59:32,27.2696,31.1511,102.42,15,12,12.77
174,Nome,US,2021-08-08 16:58:08,64.5011,-165.4064,52.16,84,100,9.64
175,Katsuura,JP,2021-08-08 16:56:07,35.1333,140.3,84.31,91,100,18.99
176,Bereda,ES,2021-08-08 16:59:32,43.2686,-7.5406,78.42,48,35,7.2
177,Chor,PK,2021-08-08 16:59:33,25.5167,69.7667,88.32,53,1,18.43
178,Znamenskoye,RU,2021-08-08 16:59:33,57.1281,73.8282,63.32,93,97,4.92
179,Buchanan,LR,2021-08-08 16:59:34,5.8808,-10.0467,84.16,73,92,11.48
180,Santa Barbara,US,2021-08-08 16:54:59,34.7333,-120.0343,86.14,25,1,5.41
181,Vazante,BR,2021-08-08 16:59:34,-17.9869,-46.9078,79.2,30,0,7.58
182,Sitka,US,2021-08-08 16:55:39,57.0531,-135.33,60.06,81,85,3.89
183,Tocopilla,CL,2021-08-08 16:59:34,-22.092,-70.1979,63.9,64,22,13.94
184,Norman Wells,CA,2021-08-08 16:53:35,65.282,-126.8329,48.24,71,90,8.05
185,Hobyo,SO,2021-08-08 16:59:35,5.3505,48.5268,77.05,84,100,26.66
186,Vrangel,RU,2021-08-08 16:59:35,42.7297,133.0839,67.14,84,100,8.12
187,Ballina,AU,2021-08-08 16:59:36,-28.8667,153.5667,60.76,67,90,12.66
188,Antalaha,MG,2021-08-08 16:59:36,-14.9003,50.2788,71.02,77,83,8.88
189,Chifeng,CN,2021-08-08 16:59:37,42.2683,118.9636,72.07,69,100,3.31
190,Yaring,TH,2021-08-08 16:59:37,6.8662,101.3689,79.99,83,74,7.58
191,Derzhavinsk,KZ,2021-08-08 16:59:37,51.1,66.3167,67.89,47,75,9.78
192,Shelburne,CA,2021-08-08 16:59:38,44.0787,-80.2041,77.76,61,92,7.72
193,Thinadhoo,MV,2021-08-08 16:56:32,0.5333,72.9333,81.39,77,100,3.89
194,Atemar,RU,2021-08-08 16:59:38,54.181,45.4091,73.47,49,98,3.67
195,Vestmannaeyjar,IS,2021-08-08 16:58:09,63.4427,-20.2734,59.99,67,0,14.97
196,Bandarbeyla,SO,2021-08-08 16:59:39,9.4942,50.8122,76.44,83,78,32.5
197,Batagay,RU,2021-08-08 16:59:40,67.6333,134.6333,62.71,46,36,2.39
198,Seminole,US,2021-08-08 16:59:40,28.7086,-81.2081,94.35,73,64,4.54
199,Lesnoye,RU,2021-08-08 16:59:40,58.2841,35.5158,67.24,77,75,3.36
200,Lazaro Cardenas,MX,2021-08-08 16:59:41,17.9583,-102.2,83.55,75,84,3.22
201,Ilulissat,GL,2021-08-08 16:55:12,69.2167,-51.1,37.09,97,100,10.67
202,Sharjah,AE,2021-08-08 16:59:41,25.3573,55.4033,105.78,32,0,4.61
203,San Patricio,US,2021-08-08 16:55:34,28.017,-97.5169,92.12,52,9,17.72
204,Shingu,JP,2021-08-08 16:59:42,33.7333,135.9833,80.91,95,100,12.95
205,Muros,ES,2021-08-08 16:59:42,42.7762,-9.0603,71.15,70,64,13.49
206,Vysokogornyy,RU,2021-08-08 16:59:43,50.1167,139.15,46.47,98,100,4.63
207,Sao Joao Da Barra,BR,2021-08-08 16:59:43,-21.6403,-41.0511,75.29,67,98,12.17
208,Malpe,IN,2021-08-08 16:59:44,13.35,74.7167,78.1,88,42,4.79
209,Bubaque,GW,2021-08-08 16:58:14,11.2833,-15.8333,80.15,73,23,11.95
210,At-Bashi,KG,2021-08-08 16:59:44,41.1702,75.8106,59.04,53,49,2.59
211,Riberalta,BO,2021-08-08 16:59:45,-10.9833,-66.1,89.8,45,8,4.61
212,Okhotsk,RU,2021-08-08 16:59:45,59.3833,143.3,56.73,81,10,7.31
213,Truth Or Consequences,US,2021-08-08 16:58:51,33.1284,-107.2528,88.92,24,1,4.7
214,Byron Bay,AU,2021-08-08 16:57:27,-28.65,153.6167,60.69,71,100,10.0
215,Tymovskoye,RU,2021-08-08 16:59:46,50.8456,142.655,46.35,90,100,2.01
216,Hod Hasharon,IL,2021-08-08 16:59:46,32.1508,34.8883,85.95,72,20,6.91
217,Hay River,CA,2021-08-08 16:55:11,60.8156,-115.7999,48.18,87,90,6.91
218,Tochio,JP,2021-08-08 16:59:46,37.4667,139.0,74.21,93,78,3.42
219,Kirakira,SB,2021-08-08 16:59:47,-10.4544,161.9205,77.05,86,93,5.66
220,Ahipara,NZ,2021-08-08 16:59:47,-35.1667,173.1667,49.15,70,99,21.3
221,Marmaris,TR,2021-08-08 16:59:48,36.855,28.2742,94.95,44,0,5.79
222,Portland,US,2021-08-08 16:58:28,45.5234,-122.6762,69.08,64,22,1.01
223,Yerbogachen,RU,2021-08-08 16:59:48,61.2767,108.0108,51.75,58,1,1.12
224,Tezu,IN,2021-08-08 16:59:48,27.9167,96.1667,77.74,98,98,2.35
225,Panaba,MX,2021-08-08 16:59:49,21.2833,-88.2667,96.04,36,44,8.25
226,Mahebourg,MU,2021-08-08 16:53:19,-20.4081,57.7,69.26,100,75,5.75
227,Sahuaripa,MX,2021-08-08 16:59:49,29.05,-109.2333,84.06,66,81,1.97
228,Salalah,OM,2021-08-08 16:56:06,17.0151,54.0924,77.43,88,89,6.91
229,Key West,US,2021-08-08 16:57:05,24.5557,-81.7826,90.0,62,20,8.05
230,Ivolginsk,RU,2021-08-08 16:59:50,51.7492,107.2837,56.86,88,40,0.0
231,Bethel,US,2021-08-08 16:58:05,41.3712,-73.414,81.18,70,98,4.92
232,Perivolion,GR,2021-08-08 16:59:50,39.4206,20.0147,87.01,70,0,6.62
233,Alvorada,BR,2021-08-08 16:55:30,-12.48,-49.1247,91.42,22,0,7.52
234,Teknaf,BD,2021-08-08 16:59:51,20.8624,92.3058,80.35,89,99,2.98
235,Manggar,ID,2021-08-08 16:59:51,-2.8833,108.2667,82.04,81,100,10.09
236,Sultanpur,IN,2021-08-08 16:59:52,26.2667,82.0667,81.93,84,96,5.14
237,Pyaozerskiy,RU,2021-08-08 16:59:52,65.8333,31.1667,58.08,68,100,10.04
238,Honningsvag,NO,2021-08-08 16:59:52,70.9821,25.9704,71.35,40,0,8.05
239,Tasiilaq,GL,2021-08-08 16:59:53,65.6145,-37.6368,41.49,96,100,19.13
240,Miraflores,MX,2021-08-08 16:59:53,19.2167,-98.8083,63.86,73,70,1.21
241,Abatskoye,RU,2021-08-08 16:59:54,56.2875,70.4555,63.32,95,91,10.42
242,Piacabucu,BR,2021-08-08 16:59:54,-10.4056,-36.4344,77.4,60,91,9.15
243,Punta Alta,AR,2021-08-08 16:59:54,-38.8759,-62.0736,53.98,41,100,9.44
244,Cayenne,GF,2021-08-08 16:59:55,4.9333,-52.3333,91.44,75,40,5.01
245,Dunmore East,IE,2021-08-08 16:59:55,52.1514,-6.9861,65.32,76,40,10.36
246,Azangaro,PE,2021-08-08 16:59:55,-14.9167,-70.2167,55.13,18,1,4.88
247,Black River,JM,2021-08-08 16:59:15,18.0264,-77.8487,89.6,58,31,9.15
248,Constitucion,CL,2021-08-08 16:54:58,-35.3333,-72.4167,53.22,55,99,4.14
249,Macas,EC,2021-08-08 16:59:56,-2.3167,-78.1167,78.55,65,75,2.3
250,Chimbote,PE,2021-08-08 16:59:57,-9.0853,-78.5783,68.79,71,56,10.8
251,Zhigansk,RU,2021-08-08 16:59:57,66.7697,123.3711,59.05,45,99,8.03
252,Ostrovnoy,RU,2021-08-08 16:56:05,68.0531,39.5131,57.31,68,38,11.74
253,Inhambane,MZ,2021-08-08 16:56:03,-23.865,35.3833,67.98,77,20,7.52
254,Birin,NP,2021-08-08 16:59:58,26.8865,88.0718,65.82,94,81,2.46
255,Chokurdakh,RU,2021-08-08 16:55:04,70.6333,147.9167,50.94,62,82,7.76
256,Presidencia Roque Saenz Pena,AR,2021-08-08 16:58:33,-26.7852,-60.4388,94.3,20,39,14.92
257,Andenes,NO,2021-08-08 16:59:58,69.3143,16.1194,65.46,63,22,6.91
258,Beyneu,KZ,2021-08-08 16:58:30,45.3167,55.2,95.9,15,0,13.18
259,Gangapur,IN,2021-08-08 16:59:59,26.4833,76.7167,82.71,81,100,2.75
260,Semnan,IR,2021-08-08 16:59:59,35.5729,53.3971,89.56,20,59,4.05
261,Kieta,PG,2021-08-08 17:00:00,-6.2167,155.6333,76.86,83,95,4.52
262,Vanimo,PG,2021-08-08 17:00:00,-2.6741,141.3028,77.0,89,88,6.17
263,Christchurch,NZ,2021-08-08 16:55:42,-43.5333,172.6333,37.99,80,75,5.99
264,Lebu,CL,2021-08-08 17:00:01,-37.6167,-73.65,50.36,65,42,10.89
265,Bellingham,US,2021-08-08 17:00:01,48.7595,-122.4882,61.9,89,100,1.99
266,Sao Jose Da Coroa Grande,BR,2021-08-08 17:00:03,-8.8978,-35.1478,77.07,73,63,11.92
267,San-Pedro,CI,2021-08-08 17:00:03,4.7485,-6.6363,79.25,76,70,11.9
268,Tabou,CI,2021-08-08 16:58:21,4.423,-7.3528,79.41,76,69,11.83
269,Berezanka,UA,2021-08-08 17:00:04,46.8526,31.388,77.41,43,9,12.82
270,Karratha,AU,2021-08-08 17:00:05,-20.7377,116.8463,68.52,66,1,3.58
271,Kovacica,RS,2021-08-08 17:00:06,45.1117,20.6214,93.42,19,1,5.1
272,Isla Mujeres,MX,2021-08-08 17:00:07,21.2311,-86.731,91.45,65,65,9.64
273,Vardo,NO,2021-08-08 17:00:08,70.3705,31.1107,71.35,77,0,5.75
274,Pangnirtung,CA,2021-08-08 17:00:09,66.1451,-65.7125,44.82,74,99,4.5
275,Vigrestad,NO,2021-08-08 17:00:10,58.5667,5.7,65.97,79,52,15.99
276,Port Macquarie,AU,2021-08-08 16:57:45,-31.4333,152.9167,51.76,64,97,2.3
277,Tuatapere,NZ,2021-08-08 17:00:11,-46.1333,167.6833,35.82,84,99,6.82
278,That Phanom,TH,2021-08-08 17:00:11,16.9364,104.7104,80.13,87,95,5.86
279,Hami,CN,2021-08-08 17:00:12,42.8,93.45,84.83,14,26,6.8
280,Newport,GB,2021-08-08 17:00:13,51.5877,-2.9984,68.29,71,58,18.97
281,Mweka,CD,2021-08-08 17:00:14,-4.85,21.5667,84.69,33,95,2.17
282,Dunedin,NZ,2021-08-08 16:57:19,-45.8742,170.5036,35.01,95,80,14.12
283,Santa Ana,US,2021-08-08 16:58:14,33.7456,-117.8678,83.48,76,90,1.99
284,Pussi,EE,2021-08-08 17:00:14,59.36,27.0497,67.12,76,100,5.44
285,Huarmey,PE,2021-08-08 17:00:15,-10.0681,-78.1522,68.59,70,51,12.01
286,Swan River,CA,2021-08-08 17:00:16,52.1058,-101.2676,80.15,49,85,5.12
287,Nioro,GM,2021-08-08 16:57:56,13.35,-15.75,84.85,69,83,9.91
288,Asyut,EG,2021-08-08 17:00:16,27.181,31.1837,99.86,16,11,11.97
289,Collierville,US,2021-08-08 16:58:59,35.042,-89.6645,89.74,59,1,2.3
290,Eagle,US,2021-08-08 17:00:17,43.6954,-116.354,80.53,52,1,4.0
291,Tiksi,RU,2021-08-08 16:55:21,71.6872,128.8694,45.14,88,9,6.22
292,Great Yarmouth,GB,2021-08-08 17:00:18,52.6083,1.7305,67.95,76,88,19.3
293,Aitape,PG,2021-08-08 17:00:20,-3.1374,142.3475,76.91,87,85,6.26
294,Basco,PH,2021-08-08 17:00:21,20.4487,121.9702,84.04,83,100,24.18
295,Srednekolymsk,RU,2021-08-08 17:00:22,67.45,153.6833,49.15,73,6,2.59
296,Faanui,PF,2021-08-08 16:58:31,-16.4833,-151.75,78.85,74,41,13.31
297,Fortuna,US,2021-08-08 17:00:23,40.5982,-124.1573,63.86,96,90,1.01
298,Gladstone,AU,2021-08-08 16:55:26,-23.85,151.25,57.13,72,40,6.91
299,Rio Gallegos,AR,2021-08-08 17:00:24,-51.6226,-69.2181,44.06,63,36,24.2
300,Misawa,JP,2021-08-08 17:00:24,40.6836,141.3597,73.71,96,100,15.77
301,The Valley,AI,2021-08-08 17:00:25,18.217,-63.0578,86.83,77,10,18.1
302,Chicama,PE,2021-08-08 16:58:27,-7.8447,-79.1469,64.94,58,28,8.84
303,Marawi,PH,2021-08-08 17:00:26,7.9986,124.2928,66.65,94,100,2.89
304,Samarai,PG,2021-08-08 17:00:27,-10.6167,150.6667,77.85,79,99,16.84
305,Raga,SS,2021-08-08 17:00:27,8.4596,25.678,71.69,93,97,3.85
306,Carbonia,IT,2021-08-08 17:00:28,39.1672,8.5222,81.84,42,96,1.41
307,Pisco,PE,2021-08-08 17:00:29,-13.7,-76.2167,63.01,79,4,7.29
308,Gobabis,NA,2021-08-08 17:00:29,-22.45,18.9667,68.2,14,0,8.66
309,Bengkulu,ID,2021-08-08 16:55:31,-3.8004,102.2655,76.87,92,52,4.09
310,Kudahuvadhoo,MV,2021-08-08 17:00:30,2.6708,72.8944,83.84,73,100,13.38
311,Campo Maior,BR,2021-08-08 17:00:31,-4.8278,-42.1686,98.89,20,0,5.39
312,Valdivia,CL,2021-08-08 17:00:32,-39.8142,-73.2459,47.93,70,99,4.83
313,Coromandel,BR,2021-08-08 17:00:33,-18.4733,-47.2003,75.6,32,0,7.31
314,Velyka Pysarivka,UA,2021-08-08 17:00:33,50.4259,35.485,79.25,35,99,12.12
315,Motygino,RU,2021-08-08 16:57:59,58.1831,94.7592,59.92,78,46,1.95
316,Vyazemskiy,RU,2021-08-08 17:00:34,47.5378,134.7525,57.49,82,100,8.19
317,Kyren,RU,2021-08-08 16:58:24,51.6828,102.1408,54.9,82,1,1.95
318,Nha Trang,VN,2021-08-08 16:57:47,12.25,109.1833,86.0,85,99,4.56
319,College,US,2021-08-08 17:00:15,64.8569,-147.8028,58.59,89,100,3.44
320,Forestville,US,2021-08-08 17:00:35,38.8451,-76.875,89.28,56,1,1.01
321,Inirida,CO,2021-08-08 17:00:35,3.8653,-67.9239,75.45,95,97,4.72
322,Suntar,RU,2021-08-08 17:00:36,62.1444,117.6319,57.06,97,54,0.38
323,Namibe,AO,2021-08-08 16:53:39,-15.1961,12.1522,67.05,78,65,12.19
324,Kaeo,NZ,2021-08-08 17:00:37,-35.1,173.7833,43.32,94,97,14.14
325,Cabra,ES,2021-08-08 17:00:37,37.4725,-4.4421,94.44,23,0,3.0
326,Half Moon Bay,US,2021-08-08 17:00:38,37.4636,-122.4286,78.15,82,90,1.99
327,San Antonio,US,2021-08-08 16:57:46,29.4241,-98.4936,90.79,66,8,4.0
328,Avarua,CK,2021-08-08 16:56:12,-21.2078,-159.775,69.85,83,90,3.44
329,Norrtalje,SE,2021-08-08 17:00:39,59.758,18.705,66.29,94,100,3.94
330,San Buenaventura,MX,2021-08-08 17:00:39,27.0833,-101.5333,89.17,42,0,2.71
331,Vostochnyy,RU,2021-08-08 17:00:39,55.8167,37.8667,76.3,67,98,3.24
332,Belyy Yar,RU,2021-08-08 17:00:40,53.6039,91.3903,58.89,100,40,2.24
333,Provideniya,RU,2021-08-08 16:57:40,64.3833,-173.3,44.46,86,100,14.09
334,Gazli,UZ,2021-08-08 17:00:41,40.1333,63.45,94.03,13,0,13.67
335,Tura,IN,2021-08-08 17:00:41,25.5198,90.2201,75.58,97,87,6.53
336,Tokoroa,NZ,2021-08-08 17:00:41,-38.2333,175.8667,43.14,74,73,7.0
337,Tefe,BR,2021-08-08 17:00:20,-3.3542,-64.7114,95.07,39,12,2.66
338,Bhainsdehi,IN,2021-08-08 17:00:42,21.6467,77.6325,73.53,90,96,3.74
339,Ramsar,IR,2021-08-08 17:00:43,36.9226,50.6426,86.9,68,18,4.29
340,Alta Floresta,BR,2021-08-08 16:56:47,-9.8756,-56.0861,98.33,20,4,3.94
341,Yaan,NG,2021-08-08 17:00:43,7.3833,8.5667,74.61,86,100,9.06
342,Vila Velha,BR,2021-08-08 17:00:45,-20.3297,-40.2925,73.47,63,49,7.81
343,Kenitra,MA,2021-08-08 16:57:30,34.261,-6.5802,75.96,62,0,13.35
344,Tulagi,SB,2021-08-08 17:00:45,-9.0996,160.1476,80.62,76,99,8.97
345,Haines Junction,CA,2021-08-08 16:57:48,60.7522,-137.5108,53.55,87,100,3.44
346,Turbat,PK,2021-08-08 16:59:11,26.0023,63.044,87.98,60,0,6.46
347,Pemangkat,ID,2021-08-08 17:00:46,1.1667,108.9667,80.53,81,99,3.04
348,Quatre Cocos,MU,2021-08-08 17:00:47,-20.2078,57.7625,69.1,90,95,20.27
349,Puerto Baquerizo Moreno,EC,2021-08-08 17:00:47,-0.9,-89.6,70.68,77,37,17.02
350,Santa Rosa,PH,2021-08-08 16:58:13,14.3122,121.1114,82.38,87,92,5.03
351,Klaksvik,FO,2021-08-08 16:58:22,62.2266,-6.589,54.52,92,85,9.62
352,Luau,AO,2021-08-08 17:00:48,-10.7073,22.2247,76.42,16,81,0.6
353,Jalu,LY,2021-08-08 17:00:48,29.0331,21.5482,98.06,15,0,10.67
354,Te Anau,NZ,2021-08-08 17:00:49,-45.4167,167.7167,31.64,98,83,1.1
355,Progreso,MX,2021-08-08 17:00:49,21.2833,-89.6667,86.11,60,8,11.1
356,Mitsamiouli,KM,2021-08-08 17:00:49,-11.3847,43.2844,77.02,66,43,7.36
357,Xining,CN,2021-08-08 16:55:23,36.6167,101.7667,58.05,77,83,1.48
358,Ucluelet,CA,2021-08-08 17:00:50,48.9329,-125.5528,64.09,75,39,3.09
359,Catuday,PH,2021-08-08 17:00:50,16.2923,119.8062,80.28,83,100,13.44
360,Biak,ID,2021-08-08 17:00:51,-0.9131,122.8766,74.88,86,68,5.95
361,Gasa,PS,2021-08-08 16:58:13,31.5,34.4667,85.91,69,0,9.15
362,Tsevie,TG,2021-08-08 17:00:51,6.4261,1.2133,76.73,83,100,9.01
363,Volnoye,UA,2021-08-08 17:00:52,47.6365,34.8139,82.72,62,100,8.23
364,Atar,MR,2021-08-08 17:00:52,20.5169,-13.0499,101.55,22,4,11.23
365,Aksu,CN,2021-08-08 17:00:53,41.1231,80.2644,79.79,36,29,4.23
366,Acapulco,MX,2021-08-08 16:58:55,16.8634,-99.8901,85.68,63,97,5.39
367,Iskele,TR,2021-08-08 17:00:53,39.484,26.9278,87.82,40,0,11.43
368,Port Moresby,PG,2021-08-08 16:58:30,-9.4431,147.1797,76.42,83,40,11.5
369,Pangai,TO,2021-08-08 17:00:54,-19.8,-174.35,73.53,58,66,5.79
370,Avera,US,2021-08-08 17:00:54,33.194,-82.5271,91.71,47,13,2.44
371,Makakilo City,US,2021-08-08 16:56:43,21.3469,-158.0858,74.68,76,1,13.56
372,Salihorsk,BY,2021-08-08 17:00:55,52.7876,27.5415,73.47,62,56,6.24
373,Livingstone,ZM,2021-08-08 17:00:55,-17.8419,25.8543,67.19,30,0,5.55
374,Kahului,US,2021-08-08 16:58:57,20.8947,-156.47,71.96,88,8,9.44
375,Maua,BR,2021-08-08 17:00:56,-23.6678,-46.4614,76.35,41,6,3.8
376,Airai,TL,2021-08-08 17:00:57,-8.9266,125.4092,54.7,87,37,1.68
377,Wiwili,NI,2021-08-08 17:00:25,13.6268,-85.8254,84.04,61,89,5.93
378,Longyearbyen,SJ,2021-08-08 17:00:57,78.2186,15.6401,44.44,81,20,12.66
379,Nouadhibou,MR,2021-08-08 17:00:58,20.931,-17.0347,69.82,87,0,22.75
380,Matara,LK,2021-08-08 17:00:58,5.9485,80.5353,76.78,92,72,9.6
381,Mulege,MX,2021-08-08 17:00:59,26.8833,-111.9833,90.81,48,5,6.51
382,Touros,BR,2021-08-08 16:57:55,-5.1989,-35.4608,81.5,65,50,19.95
383,Zhelyabovka,UA,2021-08-08 17:01:00,45.3988,34.7578,68.9,91,100,7.76
384,Ponta Do Sol,PT,2021-08-08 16:58:27,32.6667,-17.1,75.83,75,64,2.77
385,Bulolo,PG,2021-08-08 17:01:00,-7.2,146.65,69.15,96,98,1.41
386,Cahors,FR,2021-08-08 17:01:01,44.4167,1.3333,72.9,58,84,2.68
387,Topolobampo,MX,2021-08-08 17:01:02,25.6,-109.05,89.11,62,97,8.59
388,Marrakesh,MA,2021-08-08 17:01:02,31.6315,-8.0083,91.47,31,0,6.91
389,Opuwo,NA,2021-08-08 17:01:02,-18.0607,13.84,73.83,13,5,7.11
390,Sola,VU,2021-08-08 17:01:03,-13.8833,167.55,75.69,87,100,15.55
391,Shenjiamen,CN,2021-08-08 17:01:03,29.9576,122.298,78.06,81,8,4.05
392,Ketchikan,US,2021-08-08 17:01:03,55.3422,-131.6461,61.34,77,59,0.92
393,Port-Gentil,GA,2021-08-08 16:57:56,-0.7193,8.7815,78.76,78,90,11.5
394,Grand Gaube,MU,2021-08-08 17:01:04,-20.0064,57.6608,69.39,89,88,3.0
395,Asau,RO,2021-08-08 17:01:04,46.4333,26.4,77.92,62,14,0.51
396,Manakara,MG,2021-08-08 17:01:05,-22.1333,48.0167,66.76,84,0,1.86
397,Kommunar,RU,2021-08-08 17:01:06,59.6206,30.39,71.13,88,99,4.61
398,Muisne,EC,2021-08-08 17:01:06,0.6,-80.0333,77.72,77,95,11.48
399,Ayni,TJ,2021-08-08 17:01:07,39.3941,68.5377,74.82,38,4,3.62
400,Dauriya,RU,2021-08-08 17:01:07,49.9333,116.8667,61.95,84,96,4.88
401,Lempaala,FI,2021-08-08 17:01:08,61.3167,23.75,68.38,68,0,2.3
402,Veraval,IN,2021-08-08 17:01:08,20.9,70.3667,80.94,82,93,8.1
403,Palmer,US,2021-08-08 16:58:39,42.1584,-72.3287,84.27,65,100,3.22
404,Ribeira Grande,PT,2021-08-08 16:58:02,38.5167,-28.7,77.4,69,75,13.8
405,Montepuez,MZ,2021-08-08 17:01:09,-13.1256,38.9997,76.91,35,43,8.25
406,Bodden Town,KY,2021-08-08 17:01:09,19.2833,-81.25,89.98,74,14,8.01
407,Lagoa,PT,2021-08-08 17:01:10,39.05,-27.9833,71.82,84,73,17.9
408,Ishinomaki,JP,2021-08-08 17:01:10,38.4167,141.3,76.37,92,78,6.24
409,Pierre,US,2021-08-08 16:56:19,44.3683,-100.351,92.82,25,0,5.21
410,Lahij,YE,2021-08-08 17:01:11,13.1667,44.5833,96.3,30,87,12.55
411,Anantnag,IN,2021-08-08 17:01:11,33.7333,75.15,64.76,82,7,2.13
412,Semey,KZ,2021-08-08 17:01:12,50.4111,80.2275,68.22,68,40,2.24
413,Weihai,CN,2021-08-08 17:01:12,37.5017,122.1136,74.71,86,4,6.89
414,La Ronge,CA,2021-08-08 17:01:13,55.1001,-105.2842,58.26,85,86,13.29
415,Kstovo,RU,2021-08-08 17:01:13,56.1473,44.1979,83.59,46,69,7.61
416,Santiago De Chuco,PE,2021-08-08 17:01:14,-8.15,-78.1833,65.28,30,2,2.01
417,Cabo San Lucas,MX,2021-08-08 16:56:41,22.8909,-109.9124,91.06,68,100,4.0
418,Baghdad,IQ,2021-08-08 16:55:10,33.3406,44.4009,105.71,14,0,5.75
419,Port Blair,IN,2021-08-08 17:01:14,11.6667,92.75,82.45,83,88,10.42
420,Lashio,MM,2021-08-08 17:01:15,22.9333,97.75,69.84,99,100,1.12
421,Tigil,RU,2021-08-08 17:01:15,57.8,158.6667,43.41,88,43,3.38
422,Yuancheng,CN,2021-08-08 17:01:15,36.652,107.7896,72.46,63,88,1.59
423,Coquimbo,CL,2021-08-08 16:59:46,-29.9533,-71.3436,58.73,72,75,3.44
424,Evensk,RU,2021-08-08 17:01:16,61.95,159.2333,51.93,70,39,10.76
425,Yar-Sale,RU,2021-08-08 17:01:17,66.8333,70.8333,56.28,72,88,16.78
426,Humaita,BR,2021-08-08 17:01:17,-7.5061,-63.0208,100.92,20,5,3.18
427,Gushi,CN,2021-08-08 17:01:18,34.6425,109.5843,75.16,70,70,3.6
428,Woodward,US,2021-08-08 17:01:18,36.4337,-99.3904,88.83,64,1,12.66
429,Pachino,IT,2021-08-08 17:01:18,36.7186,15.0907,91.6,71,0,11.39
430,Loandjili,CG,2021-08-08 17:01:19,-4.7561,11.8578,73.87,76,59,7.38
431,Churapcha,RU,2021-08-08 17:01:19,62.0025,132.4325,52.99,52,4,6.17
432,Pevek,RU,2021-08-08 17:01:20,69.7008,170.3133,36.73,84,87,8.21
433,Barcelos,PT,2021-08-08 16:58:27,41.5388,-8.6151,79.29,56,20,11.63
434,Kharp,RU,2021-08-08 17:01:20,66.8014,65.8081,58.98,84,100,3.83
435,Kuusamo,FI,2021-08-08 17:01:21,65.9667,29.1833,59.04,67,90,14.97
436,Vostok,RU,2021-08-08 17:01:22,46.4856,135.8833,51.51,94,94,4.45
437,Springbok,ZA,2021-08-08 17:01:22,-29.6643,17.8865,47.71,84,80,14.61
438,Odweyne,SO,2021-08-08 17:01:23,9.4092,45.064,79.21,48,51,8.08
439,Laurel,US,2021-08-08 17:00:54,39.0993,-76.8483,89.62,56,1,1.01
440,Charlestown,AU,2021-08-08 17:01:24,-32.95,151.6667,59.74,78,100,4.0
441,Beringovskiy,RU,2021-08-08 17:01:24,63.05,179.3167,43.61,89,100,23.42
442,Paamiut,GL,2021-08-08 17:01:25,61.994,-49.6678,43.65,85,88,8.48
443,Baffa,PK,2021-08-08 17:01:25,34.4378,73.2194,75.06,73,24,5.61
444,Burnie,AU,2021-08-08 17:00:31,-41.0667,145.9167,47.91,88,95,3.47
445,Broome,US,2021-08-08 17:01:26,42.2506,-75.833,84.7,61,44,1.99
446,Mogadishu,SO,2021-08-08 17:01:26,2.0371,45.3438,76.66,87,31,20.78
447,Conde,BR,2021-08-08 17:01:27,-7.2597,-34.9075,79.5,64,62,17.38
448,Olafsvik,IS,2021-08-08 17:01:27,64.8945,-23.7142,57.76,78,100,6.96
449,Mekhe,SN,2021-08-08 17:01:28,15.1097,-16.6218,86.56,59,47,14.41
450,Limbe,CM,2021-08-08 17:01:28,4.0242,9.2149,73.44,94,94,9.57
451,Ahuimanu,US,2021-08-08 17:01:28,21.4447,-157.8378,75.85,74,9,14.41
452,Sungurlu,TR,2021-08-08 17:01:29,40.1675,34.3739,71.26,67,58,9.55
453,Didao,CN,2021-08-08 17:01:29,45.3667,130.8,51.13,97,6,3.89
454,Campestre,BR,2021-08-08 17:01:30,-21.7111,-46.2464,68.36,40,37,7.87
455,Awash,ET,2021-08-08 17:01:31,8.9833,40.1667,78.48,57,47,7.74
456,Prince Rupert,CA,2021-08-08 17:00:12,54.3161,-130.3201,59.47,85,48,3.2
457,Fort Abbas,PK,2021-08-08 17:01:31,29.1925,72.8536,102.65,28,6,5.82
458,Sorland,NO,2021-08-08 16:57:32,67.667,12.6934,71.67,71,98,15.68
459,Los Llanos De Aridane,ES,2021-08-08 17:01:32,28.6585,-17.9182,71.35,91,75,5.75
460,Aflao,TG,2021-08-08 17:01:32,6.116,1.1914,77.83,81,95,15.39
461,Lichinga,MZ,2021-08-08 17:01:32,-13.3128,35.2406,59.9,59,19,2.73
462,Bennettsville,US,2021-08-08 17:01:33,34.6174,-79.6848,89.96,63,40,0.0
463,Chara,RU,2021-08-08 17:01:33,56.9064,118.2631,59.86,83,80,3.02
464,Xiongzhou,CN,2021-08-08 17:01:34,25.1167,114.3,79.48,91,83,2.42
465,Ambanja,MG,2021-08-08 17:01:34,-13.6833,48.45,72.14,84,81,1.07
466,Ulladulla,AU,2021-08-08 17:01:34,-35.35,150.4667,46.09,68,93,3.83
467,Zabaykalsk,RU,2021-08-08 17:01:35,49.6333,117.3167,64.24,72,84,3.15
468,Westport,US,2021-08-08 17:01:07,41.1415,-73.3579,80.06,85,98,1.01
469,Fenoarivo Atsinanana,MG,2021-08-08 17:01:35,-17.3667,49.4167,68.31,83,1,1.23
470,Sembe,CG,2021-08-08 17:01:36,1.6481,14.5806,73.15,95,82,2.48
471,Bonavista,CA,2021-08-08 17:01:36,48.6499,-53.1147,72.12,95,99,21.0
472,Vao,NC,2021-08-08 17:01:37,-22.6667,167.4833,67.5,59,56,18.77
473,Kasama,ZM,2021-08-08 17:01:37,-10.2129,31.1808,64.9,35,0,5.7
474,Gizo,SB,2021-08-08 17:01:37,-8.103,156.8419,80.26,74,66,5.3
475,Teguldet,RU,2021-08-08 17:01:38,57.3064,88.1667,65.52,80,100,2.13
476,Tawang,IN,2021-08-08 17:01:38,27.5833,91.8667,58.95,99,100,2.1
477,Kabinda,CD,2021-08-08 17:01:39,-6.1333,24.4833,78.46,20,83,3.76
478,Khuzdar,PK,2021-08-08 17:01:39,27.7384,66.6434,89.26,30,2,6.64
479,Awbari,LY,2021-08-08 17:01:39,26.5921,12.7805,105.46,6,0,8.46
480,Vilcun,CL,2021-08-08 17:01:40,-38.65,-72.2333,48.04,58,84,2.37
481,Broken Hill,AU,2021-08-08 16:58:26,-31.95,141.4333,44.31,70,0,10.36
482,Verkhoturye,RU,2021-08-08 17:01:40,58.8627,60.8054,61.03,96,25,5.32
483,Sorong,ID,2021-08-08 17:01:40,-0.8833,131.25,77.83,87,100,4.65
484,Orocue,CO,2021-08-08 17:00:21,4.7912,-71.3354,90.32,55,80,2.8
485,Snasa,NO,2021-08-08 17:01:41,64.2457,12.3778,69.21,76,100,8.46
486,Kolondieba,ML,2021-08-08 17:01:41,11.0882,-6.8926,83.86,66,89,4.45
487,Kuliyapitiya,LK,2021-08-08 17:01:42,7.4688,80.0401,80.28,95,100,5.32
488,Betafo,MG,2021-08-08 17:01:42,-19.8333,46.85,55.15,59,4,5.1
489,Vespasiano,BR,2021-08-08 17:01:43,-19.6919,-43.9233,69.91,49,80,7.43
490,Sao Felix Do Xingu,BR,2021-08-08 17:01:43,-6.6447,-51.995,97.99,22,19,3.51
491,Machilipatnam,IN,2021-08-08 17:01:43,16.1667,81.1333,84.4,73,76,8.59
492,Sur,OM,2021-08-08 16:58:04,22.5667,59.5289,90.45,56,0,9.57
493,Puerto Leguizamo,CO,2021-08-08 17:00:21,-0.1934,-74.7819,93.02,43,60,1.3
494,Villa Carlos Paz,AR,2021-08-08 17:01:44,-31.4241,-64.4978,64.06,45,0,13.0
495,Nanakuli,US,2021-08-08 17:01:45,21.3906,-158.1547,76.1,68,2,11.7
496,Verkhoyansk,RU,2021-08-08 17:01:45,67.5447,133.385,62.62,52,4,2.57
497,Manoel Urbano,BR,2021-08-08 17:01:45,-8.8389,-69.2597,98.02,24,3,1.07
498,Angoche,MZ,2021-08-08 17:01:46,-16.2325,39.9086,72.59,65,11,10.11
499,Chizhou,CN,2021-08-08 17:01:46,30.6578,117.4831,78.28,81,100,5.21
500,Port Hedland,AU,2021-08-08 16:58:17,-20.3167,118.5667,59.05,82,3,6.91
501,Icod De Los Vinos,ES,2021-08-08 17:01:47,28.3724,-16.7119,78.46,78,16,8.21
502,San Quintin,MX,2021-08-08 17:01:47,30.4833,-115.95,72.16,68,13,8.72
503,Mackay,AU,2021-08-08 16:58:01,-21.15,149.2,63.05,88,75,8.05
504,Stege,DK,2021-08-08 17:01:47,54.987,12.2846,66.6,81,71,20.31
505,Komsomolskiy,UZ,2021-08-08 17:01:48,40.4272,71.7189,81.82,19,0,8.81
506,Qasigiannguit,GL,2021-08-08 17:01:48,68.8193,-51.1922,44.85,97,100,10.36
507,Klyuchi,RU,2021-08-08 17:01:49,52.2667,79.1667,67.64,69,99,6.91
508,Arlit,NE,2021-08-08 16:58:15,18.7369,7.3853,104.85,16,73,3.15
509,Kununurra,AU,2021-08-08 17:01:49,-15.7667,128.7333,53.58,71,3,1.14
510,Vila Franca Do Campo,PT,2021-08-08 17:01:50,37.7167,-25.4333,72.01,72,47,8.97
511,Sekoma,BW,2021-08-08 17:01:50,-24.4,23.8833,66.88,19,0,7.31
512,Mokrousovo,RU,2021-08-08 17:01:51,55.8103,66.7653,60.96,86,95,6.62
513,Guerrero Negro,MX,2021-08-08 16:59:26,27.9769,-114.0611,75.88,66,6,9.98
514,Alofi,NU,2021-08-08 17:00:42,-19.0595,-169.9187,74.44,77,99,14.52
515,Chernoyerkovskaya,RU,2021-08-08 17:01:51,45.4331,37.7686,77.5,78,96,10.31
516,Chapais,CA,2021-08-08 17:01:52,49.7834,-74.8492,71.6,30,41,7.07
517,Cobija,BO,2021-08-08 17:01:53,-11.0267,-68.7692,96.35,24,5,3.67
518,Wanning,CN,2021-08-08 17:01:54,18.8003,110.3967,82.53,86,99,10.74
519,Alyangula,AU,2021-08-08 17:01:54,-13.8483,136.4192,69.12,84,0,8.7
520,Nabire,ID,2021-08-08 17:01:55,-3.3667,135.4833,74.79,93,100,4.05
521,Hailey,US,2021-08-08 17:01:55,43.5196,-114.3153,64.26,52,1,0.0
522,Cukai,MY,2021-08-08 17:01:55,4.25,103.4167,79.39,87,79,3.27
523,Juba,SS,2021-08-08 16:58:42,4.8517,31.5825,72.54,88,88,2.51
524,Ndele,CF,2021-08-08 17:01:56,8.4109,20.6473,71.69,94,50,3.11
525,Meulaboh,ID,2021-08-08 17:01:56,4.1363,96.1285,79.77,86,100,8.52
526,Hofn,IS,2021-08-08 16:55:41,64.2539,-15.2082,64.42,59,20,5.75
527,Carutapera,BR,2021-08-08 16:58:21,-1.195,-46.02,82.94,73,18,8.23
528,Nador,MA,2021-08-08 17:00:07,35.174,-2.9287,82.65,36,0,9.22
529,Stromness,GB,2021-08-08 17:01:57,58.965,-3.296,61.05,92,93,12.73
530,Mecca,SA,2021-08-08 16:57:07,21.4267,39.8261,95.72,29,1,11.39
531,Lillooet,CA,2021-08-08 17:01:57,50.6856,-121.942,61.52,72,97,3.04
532,Lavrentiya,RU,2021-08-08 17:01:58,65.5833,-171.0,42.37,88,100,14.29
533,Delta Del Tigre,UY,2021-08-08 17:01:59,-34.7633,-56.3853,56.19,79,95,8.01
534,Arica,CL,2021-08-08 16:59:46,-18.475,-70.3042,61.03,67,90,6.91
535,Tual,ID,2021-08-08 17:01:59,-5.6667,132.75,79.84,81,100,18.57
536,Kisangani,CD,2021-08-08 17:01:59,0.5167,25.2,77.65,61,72,2.75
537,Kashin,RU,2021-08-08 17:02:00,57.3592,37.6081,68.83,82,45,6.22
538,Itoman,JP,2021-08-08 17:02:00,26.1247,127.6694,80.98,94,40,13.8
539,Takoradi,GH,2021-08-08 17:02:01,4.8845,-1.7554,79.68,74,82,13.35
540,Kabale,UG,2021-08-08 17:02:01,-1.2486,29.9899,65.25,55,62,1.79
541,Benghazi,LY,2021-08-08 17:02:02,32.1167,20.0667,84.54,61,0,22.53
542,Nanortalik,GL,2021-08-08 17:02:02,60.1432,-45.2371,44.38,85,39,12.73
543,Vilhena,BR,2021-08-08 17:02:03,-12.7406,-60.1458,91.47,22,8,5.66
544,Wellington,NZ,2021-08-08 16:58:06,-41.2866,174.7756,46.06,73,75,5.99
545,Helong,CN,2021-08-08 17:02:03,42.5397,128.9972,63.14,96,100,1.45
546,Harper,LR,2021-08-08 17:00:57,4.375,-7.7169,79.45,75,86,11.5
547,Svarstad,NO,2021-08-08 17:02:04,59.399,9.9698,67.71,33,94,5.06
548,Bilibino,RU,2021-08-08 17:02:05,68.0546,166.4372,43.83,58,77,3.78
549,Mozarlandia,BR,2021-08-08 17:02:05,-14.7447,-50.5706,92.73,19,2,4.92
550,Erenhot,CN,2021-08-08 17:02:05,43.6475,111.9767,73.98,36,71,7.27
551,Port Keats,AU,2021-08-08 17:02:06,-14.25,129.55,65.17,31,0,6.55
552,Ukiah,US,2021-08-08 16:59:53,39.1502,-123.2078,88.38,30,0,2.68
553,Turayf,SA,2021-08-08 17:02:06,31.6725,38.6637,88.97,17,0,17.11
554,Fare,PF,2021-08-08 17:02:07,-16.7,-151.0167,78.66,75,33,11.7
555,Agartala,IN,2021-08-08 17:02:07,23.8364,91.275,80.62,100,40,0.0
556,Acarau,BR,2021-08-08 17:02:07,-2.8856,-40.12,87.46,53,7,21.39
557,Bakchar,RU,2021-08-08 17:02:08,57.0186,82.0711,60.62,94,64,2.93
558,Aksay,RU,2021-08-08 17:02:08,47.26,39.87,85.84,50,96,8.99
559,Samana,DO,2021-08-08 17:02:08,19.2056,-69.3369,82.9,75,23,7.31
560,Villanueva De La Serena,ES,2021-08-08 17:02:09,38.9766,-5.7974,88.83,11,0,7.67
561,Van,TR,2021-08-08 17:00:13,38.4924,43.3831,76.84,36,91,1.83
562,Kadyy,RU,2021-08-08 17:02:09,57.787,43.1903,71.06,62,100,4.05
563,Fuerte Olimpo,PY,2021-08-08 17:02:09,-21.0415,-57.8738,97.43,18,1,11.95
564,Safaga,EG,2021-08-08 16:58:38,26.7292,33.9365,98.55,55,0,0.87
565,Tadine,NC,2021-08-08 17:02:10,-21.55,167.8833,65.62,69,71,13.02
566,Richards Bay,ZA,2021-08-08 17:02:10,-28.783,32.0377,67.71,71,1,12.12
567,Barinas,VE,2021-08-08 17:02:11,8.6226,-70.2075,84.24,79,94,6.91
568,Springfield,US,2021-08-08 17:00:06,37.2153,-93.2982,84.56,84,62,14.23
569,Capitan Bado,PY,2021-08-08 17:02:11,-23.2667,-55.5333,87.08,23,1,12.62
570,Laguna,US,2021-08-08 17:02:11,38.421,-121.4238,90.1,58,1,4.0
571,Bilma,NE,2021-08-08 16:58:26,18.6853,12.9164,102.06,20,74,8.12
572,Wewak,PG,2021-08-08 17:02:12,-3.5534,143.6268,78.04,86,85,7.87
573,Homa Bay,KE,2021-08-08 17:02:12,-0.5273,34.4571,72.14,65,93,3.47
574,Trincomalee,LK,2021-08-08 17:02:13,8.5711,81.2335,80.96,76,95,19.19
575,Hue,VN,2021-08-08 17:02:13,16.4667,107.6,91.51,55,20,4.61
576,La Macarena,CO,2021-08-08 17:02:13,2.1837,-73.7849,91.69,44,8,2.33
577,Najran,SA,2021-08-08 16:57:47,17.4924,44.1277,95.65,13,77,12.46
578,Saldanha,ZA,2021-08-08 16:58:08,-33.0117,17.9442,57.25,82,100,17.31
579,Teacapan,MX,2021-08-08 17:02:14,22.55,-105.75,87.35,63,45,1.41
580,Batemans Bay,AU,2021-08-08 17:02:15,-35.7167,150.1833,44.91,81,64,4.81
581,Along,IN,2021-08-08 17:02:15,28.1667,94.7667,77.2,99,92,0.92
582,Qingdao,CN,2021-08-08 17:02:15,36.0986,120.3719,77.4,76,0,6.49
583,Bam,IR,2021-08-08 17:02:16,29.106,58.357,93.36,11,43,13.09
584,Champerico,GT,2021-08-08 17:00:27,14.3,-91.9167,92.77,76,95,3.98
585,Beisfjord,NO,2021-08-08 17:02:16,68.3751,17.5988,71.65,60,64,8.01
586,Lacombe,CA,2021-08-08 17:02:06,52.4668,-113.7353,59.54,74,97,13.0
587,Gubbi,IN,2021-08-08 17:02:17,13.3106,76.9444,74.86,79,73,7.85
588,Datong,CN,2021-08-08 17:02:17,40.0936,113.2914,63.68,84,41,4.47
589,Kavaratti,IN,2021-08-08 17:02:18,10.5669,72.642,80.94,81,100,17.96
590,Kiruna,SE,2021-08-08 17:02:18,67.8557,20.2251,58.12,77,90,14.97
591,Maragogi,BR,2021-08-08 16:58:01,-9.0122,-35.2225,76.73,74,55,11.74
592,Udachnyy,RU,2021-08-08 17:02:18,66.4167,112.4,50.4,88,29,3.47
593,Khani,GE,2021-08-08 17:02:19,41.9563,42.9566,67.57,86,80,4.14
594,Dutlwe,BW,2021-08-08 17:02:19,-23.9833,23.9,66.31,20,0,6.87
595,Badiraguato,MX,2021-08-08 17:02:20,25.3667,-107.5167,85.71,55,89,2.95
596,Mandalgovi,MN,2021-08-08 17:02:20,45.7625,106.2708,54.61,72,0,15.77
597,Mandan,US,2021-08-08 16:59:41,46.8267,-100.8896,89.04,49,1,11.5
598,Yura,PE,2021-08-08 17:02:20,-16.2522,-71.6797,66.11,23,4,10.04
599,Kinshasa,CD,2021-08-08 17:01:45,-4.3246,15.3215,87.28,32,31,6.22
600,Ilebo,CD,2021-08-08 17:02:21,-4.3167,20.5833,84.78,33,49,1.83
601,Napasar,IN,2021-08-08 17:02:22,27.9667,73.55,98.1,35,52,6.91
602,Dukat,RU,2021-08-08 17:02:22,62.55,155.55,43.66,85,52,4.63
603,Taltal,CL,2021-08-08 16:58:24,-25.4,-70.4833,59.05,62,9,7.99
604,Bambanglipuro,ID,2021-08-08 17:02:23,-7.95,110.2833,75.81,88,28,3.67
605,Hakkari,TR,2021-08-08 17:02:24,37.5833,44.1667,70.79,30,7,4.81
606,Biella,IT,2021-08-08 17:02:24,45.5871,8.0859,82.08,60,43,2.84
607,Szydlowiec,PL,2021-08-08 17:02:25,51.2282,20.8611,72.19,65,29,4.05
608,Mount Gambier,AU,2021-08-08 17:02:25,-37.8333,140.7667,44.31,81,52,7.23
609,Weligama,LK,2021-08-08 16:57:43,5.9667,80.4167,76.98,91,74,9.28
610,Mazamari,PE,2021-08-08 17:02:26,-11.3258,-74.5308,89.11,37,0,2.71
611,Mwembe,TZ,2021-08-08 17:02:26,-4.15,37.85,66.92,62,88,5.35
612,Filadelfia,US,2021-08-08 16:58:09,39.9523,-75.1638,84.24,76,53,1.99
613,Kilinochchi,LK,2021-08-08 17:02:27,9.3961,80.3982,80.08,80,100,15.28
614,Simao,CN,2021-08-08 17:02:27,22.7886,100.9748,67.69,98,100,1.83
615,Dalvik,IS,2021-08-08 17:02:27,65.9702,-18.5286,60.76,77,76,7.14
616,Ambulu,ID,2021-08-08 17:02:28,-8.345,113.6058,74.62,91,36,5.03
617,Henties Bay,NA,2021-08-08 17:02:28,-22.116,14.2845,57.85,91,2,13.91
618,Bachaquero,VE,2021-08-08 17:02:29,9.9694,-71.1494,86.16,68,70,9.01
619,Gunjur,GM,2021-08-08 17:02:29,13.2019,-16.7339,86.07,74,75,8.05
620,Asfi,MA,2021-08-08 17:02:30,32.2994,-9.2372,71.56,69,0,20.54
621,Kattivakkam,IN,2021-08-08 17:02:30,13.2167,80.3167,86.09,75,20,12.77
622,Port Said,EG,2021-08-08 17:02:30,31.2565,32.2841,83.01,74,0,17.67
623,Dzilam Gonzalez,MX,2021-08-08 17:02:31,21.2833,-88.9333,93.76,43,20,4.76
624,Boyolangu,ID,2021-08-08 17:02:31,-8.1181,111.8935,74.37,95,47,2.37
625,Tara,RU,2021-08-08 17:02:32,56.8944,74.371,62.82,93,100,5.97
626,Srivardhan,IN,2021-08-08 17:02:32,18.0333,73.0167,80.31,85,100,4.76
627,Kardamas,GR,2021-08-08 17:02:32,37.7667,21.3333,91.42,51,0,5.75
628,Mayo,US,2021-08-08 17:02:33,38.8876,-76.5119,90.09,67,48,4.0
629,Dolores,AR,2021-08-08 17:00:05,-36.3132,-57.6792,44.08,86,100,16.4
630,New Glasgow,CA,2021-08-08 17:02:33,45.5834,-62.6486,71.91,84,100,7.72
631,Varhaug,NO,2021-08-08 17:02:34,58.6147,5.6457,65.86,78,54,15.32
632,Ayan,RU,2021-08-08 17:02:34,56.45,138.1667,53.22,62,54,6.35
633,Talnakh,RU,2021-08-08 17:02:35,69.4865,88.3972,62.47,48,0,3.94
634,Nantucket,US,2021-08-08 17:02:35,41.2835,-70.0995,82.74,69,90,3.44
635,Nalut,LY,2021-08-08 17:02:35,30.3333,10.85,107.08,7,2,12.39
636,Rawson,AR,2021-08-08 16:57:45,-43.3002,-65.1023,51.96,38,0,7.34
637,Maxixe,MZ,2021-08-08 17:02:36,-23.8597,35.3472,64.63,72,0,6.69
638,Ananindeua,BR,2021-08-08 17:02:36,-1.3656,-48.3722,89.51,51,40,12.66
639,Northam,GB,2021-08-08 17:02:29,51.0333,-4.2167,68.34,85,18,18.05
640,San Cristobal,VE,2021-08-08 17:02:37,7.7669,-72.225,82.83,56,70,1.12
641,Mandal,IN,2021-08-08 17:02:39,25.45,74.5667,81.84,74,100,6.46
642,Straumen,NO,2021-08-08 17:02:39,63.8709,11.2999,69.75,70,89,6.35
643,San Ignacio,BZ,2021-08-08 17:02:40,17.1561,-89.0714,92.97,43,58,8.57
644,Manama,BH,2021-08-08 17:02:40,26.2154,50.5832,100.35,41,0,4.61
645,Balabac,PH,2021-08-08 17:02:41,7.9868,117.0645,82.85,76,100,5.28
646,Bella Union,UY,2021-08-08 17:02:41,-30.2752,-57.6007,82.15,43,11,13.6
647,Bahir Dar,ET,2021-08-08 17:02:41,11.5936,37.3908,62.26,91,85,5.91
648,Qui Nhon,VN,2021-08-08 16:59:04,13.7667,109.2333,83.17,78,53,4.81
649,Sidney,AU,2021-08-08 17:00:00,-33.8679,151.2073,52.9,90,75,8.05
650,Tsaratanana,MG,2021-08-08 17:02:42,-16.7833,47.65,74.44,44,66,3.67
651,Sibiti,CG,2021-08-08 17:02:42,-3.6819,13.3499,80.96,43,89,4.92
652,Maridi,SS,2021-08-08 17:02:43,4.9158,29.4742,68.59,94,95,1.97
653,Urucara,BR,2021-08-08 17:02:43,-2.5364,-57.76,95.77,29,49,5.97
654,Vaitape,PF,2021-08-08 17:02:44,-16.5167,-151.75,78.84,74,42,13.15
655,Lodingen,NO,2021-08-08 17:02:44,68.414,15.9951,71.74,49,67,8.01
656,Teya,RU,2021-08-08 17:01:55,60.3778,92.6267,64.4,64,99,2.98
657,Bourail,NC,2021-08-08 17:02:45,-21.5667,165.4833,63.9,70,61,9.48
658,Villamontes,BO,2021-08-08 17:02:45,-21.25,-63.5,90.7,24,4,4.38
659,Ust-Ishim,RU,2021-08-08 17:02:45,57.6935,71.1665,63.36,94,77,5.01
660,Okhtyrka,UA,2021-08-08 17:02:46,50.3104,34.8988,78.04,54,72,8.01
661,Havre,FR,2021-08-08 17:02:46,49.5833,0.3333,68.43,68,75,13.8
662,Santa Rosalia,MX,2021-08-08 17:02:47,27.3167,-112.2833,87.28,46,7,3.74
663,Road Town,VG,2021-08-08 17:02:47,18.4167,-64.6167,81.19,89,40,9.22
664,Socorro,US,2021-08-08 17:02:48,31.6546,-106.3033,90.61,32,20,4.61
665,Saint-Leu,RE,2021-08-08 17:02:48,-21.15,55.2833,68.86,76,15,6.42
666,Kemijarvi,FI,2021-08-08 17:02:48,66.7131,27.4306,59.43,63,100,13.94
667,Nevelsk,RU,2021-08-08 17:02:48,46.6733,141.8633,56.52,88,100,16.8
668,Irtyshskiy,RU,2021-08-08 17:02:49,58.3333,68.1333,62.29,91,46,4.0
669,Benjamin Constant,BR,2021-08-08 17:02:49,-4.3831,-70.0311,96.31,36,22,0.56
670,Roros,NO,2021-08-08 17:02:50,62.5747,11.3842,62.44,55,40,8.05
671,Nichinan,JP,2021-08-08 17:02:50,31.6,131.3667,78.4,88,100,26.33
672,Vallenar,CL,2021-08-08 17:02:50,-28.5708,-70.7581,58.28,45,31,4.09
673,Sept-Iles,CA,2021-08-08 17:02:51,50.2001,-66.3821,67.24,59,7,5.01
674,Kenora,CA,2021-08-08 17:02:51,49.8167,-94.4337,76.15,55,32,8.16
675,Trinidad,BO,2021-08-08 17:02:51,-14.8333,-64.9,95.61,23,7,8.14
676,Mikhaylovka,RU,2021-08-08 17:02:52,50.06,43.2379,86.49,19,100,11.54
677,Bud,US,2021-08-08 17:02:52,39.447,-86.1758,86.18,67,80,8.75
678,Krutinka,RU,2021-08-08 17:02:52,56.0055,71.5113,60.42,98,99,8.21
679,Seroa,PT,2021-08-08 17:02:53,41.2651,-8.4289,74.64,56,2,10.8
680,Baykit,RU,2021-08-08 17:02:53,61.67,96.37,58.57,72,99,1.86
